<?xml version="1.0" encoding="utf-8"?>
<ArrayOfVolunteer>
  <Volunteer>
    <Id>226569794</Id>
    <Name>Yaakov Levi</Name>
    <Phone>0521234567</Phone>
    <Email>yaakovlevi@gmail.com</Email>
    <Password>Passw0rd!</Password>
    <Role>Manager</Role>
    <IsActive>true</IsActive>
    <Type_Distance>Walking</Type_Distance>
    <Address>הרצל 10 כיכר המדינה ישראל</Address>
    <Latitude>34.77041</Latitude>
    <Longitude>32.093035</Longitude>
    <Max_Distance>0</Max_Distance>
  </Volunteer>
  <Volunteer>
    <Id>310224397</Id>
    <Name>Moshe Cohen</Name>
    <Phone>0549876543</Phone>
    <Email>moshecohen@gmail.com</Email>
    <Password>SecurePass123</Password>
    <Role>Volunteer</Role>
    <IsActive>true</IsActive>
    <Type_Distance>Walking</Type_Distance>
    <Address>אלנבי 25 שינקין ישראל</Address>
    <Latitude>34.773367</Latitude>
    <Longitude>32.072976</Longitude>
    <Max_Distance>9</Max_Distance>
  </Volunteer>
  <Volunteer>
    <Id>380960907</Id>
    <Name>Avraham Goldstein</Name>
    <Phone>0506543298</Phone>
    <Email>avrahamgoldstein@gmail.com</Email>
    <Password>Gmail1234</Password>
    <Role>Volunteer</Role>
    <IsActive>true</IsActive>
    <Type_Distance>Drive</Type_Distance>
    <Address>דיזנגוף 48 תל אביב ישראל</Address>
    <Latitude>34.775382</Latitude>
    <Longitude>32.075237</Longitude>
    <Max_Distance>13</Max_Distance>
  </Volunteer>
  <Volunteer>
    <Id>212442803</Id>
    <Name>David Friedman</Name>
    <Phone>0525432187</Phone>
    <Email>davidfriedman@gmail.com</Email>
    <Password>Password123</Password>
    <Role>Volunteer</Role>
    <IsActive>true</IsActive>
    <Type_Distance>Walking</Type_Distance>
    <Address>הירקון 7 נמל תל אביב ישראל</Address>
    <Latitude>34.778712</Latitude>
    <Longitude>32.074741</Longitude>
    <Max_Distance>17</Max_Distance>
  </Volunteer>
  <Volunteer>
    <Id>330553030</Id>
    <Name>Shlomo Rabinowitz</Name>
    <Phone>0589876543</Phone>
    <Email>shlomorabinowitz@gmail.com</Email>
    <Password>SecretPass</Password>
    <Role>Volunteer</Role>
    <IsActive>true</IsActive>
    <Type_Distance>Walking</Type_Distance>
    <Address>רוטשילד 22 תל אביב ישראל</Address>
    <Latitude>34.774574</Latitude>
    <Longitude>32.069773</Longitude>
    <Max_Distance>3</Max_Distance>
  </Volunteer>
  <Volunteer>
    <Id>286893561</Id>
    <Name>Menachem Green</Name>
    <Phone>0524321987</Phone>
    <Email>menachemgreen@gmail.com</Email>
    <Password>Green2021</Password>
    <Role>Volunteer</Role>
    <IsActive>true</IsActive>
    <Type_Distance>Drive</Type_Distance>
    <Address>בן יהודה 15 נמל חיפה ישראל</Address>
    <Latitude>34.983579</Latitude>
    <Longitude>32.820103</Longitude>
    <Max_Distance>19</Max_Distance>
  </Volunteer>
  <Volunteer>
    <Id>351972702</Id>
    <Name>Aryeh Schwartz</Name>
    <Phone>0583219876</Phone>
    <Email>aryehschwartz@gmail.com</Email>
    <Password>AryehS!23</Password>
    <Role>Volunteer</Role>
    <IsActive>true</IsActive>
    <Type_Distance>Walking</Type_Distance>
    <Address>המרכז 5 מרכז העיר חיפה ישראל</Address>
    <Latitude>34.98719</Latitude>
    <Longitude>32.820918</Longitude>
    <Max_Distance>8</Max_Distance>
  </Volunteer>
  <Volunteer>
    <Id>252039698</Id>
    <Name>Shimon Baruch</Name>
    <Phone>0551987654</Phone>
    <Email>shimonbaruch@gmail.com</Email>
    <Password>Baruch2021</Password>
    <Role>Volunteer</Role>
    <IsActive>true</IsActive>
    <Type_Distance>Air</Type_Distance>
    <Address>הגבעה 3 מושב חורפיש ישראל</Address>
    <Latitude>34.988004</Latitude>
    <Longitude>32.820536</Longitude>
    <Max_Distance>9</Max_Distance>
  </Volunteer>
  <Volunteer>
    <Id>245304376</Id>
    <Name>Yisrael Weiner</Name>
    <Phone>0534567892</Phone>
    <Email>yisraelweiner@gmail.com</Email>
    <Password>WeinerPass</Password>
    <Role>Volunteer</Role>
    <IsActive>true</IsActive>
    <Type_Distance>Drive</Type_Distance>
    <Address>הצופים 12 הר הצופים ישראל</Address>
    <Latitude>34.742663</Latitude>
    <Longitude>32.977347</Longitude>
    <Max_Distance>15</Max_Distance>
  </Volunteer>
  <Volunteer>
    <Id>358023696</Id>
    <Name>Aharon Fried</Name>
    <Phone>0587654321</Phone>
    <Email>aharonfried@gmail.com</Email>
    <Password>Aharon12345</Password>
    <Role>Volunteer</Role>
    <IsActive>true</IsActive>
    <Type_Distance>Air</Type_Distance>
    <Address>הנחל 30 מושב כפר סבא ישראל</Address>
    <Latitude>34.912945</Latitude>
    <Longitude>32.175679</Longitude>
    <Max_Distance>4</Max_Distance>
  </Volunteer>
  <Volunteer>
    <Id>205973666</Id>
    <Name>Shlomo Fisher</Name>
    <Phone>0509876543</Phone>
    <Email>shlomofisher@gmail.com</Email>
    <Password>Fish1234</Password>
    <Role>Volunteer</Role>
    <IsActive>true</IsActive>
    <Type_Distance>Walking</Type_Distance>
    <Address>האלון 4 גבעתיים ישראל</Address>
    <Latitude>34.79496</Latitude>
    <Longitude>32.07283</Longitude>
    <Max_Distance>19</Max_Distance>
  </Volunteer>
  <Volunteer>
    <Id>397137490</Id>
    <Name>Daniel Grossman</Name>
    <Phone>0541234567</Phone>
    <Email>danielgrossman@gmail.com</Email>
    <Password>GrossPass!</Password>
    <Role>Volunteer</Role>
    <IsActive>true</IsActive>
    <Type_Distance>Walking</Type_Distance>
    <Address>הצבי 9 נחלת בנימין ישראל</Address>
    <Latitude>34.912181</Latitude>
    <Longitude>32.175537</Longitude>
    <Max_Distance>18</Max_Distance>
  </Volunteer>
  <Volunteer>
    <Id>319879988</Id>
    <Name>Shmuel Gross</Name>
    <Phone>0509876543</Phone>
    <Email>shmuelgross@gmail.com</Email>
    <Password>ShmuelPass</Password>
    <Role>Volunteer</Role>
    <IsActive>true</IsActive>
    <Type_Distance>Walking</Type_Distance>
    <Address>הכרמל 6 כפר חסידים ישראל</Address>
    <Latitude>34.801429</Latitude>
    <Longitude>32.070131</Longitude>
    <Max_Distance>14</Max_Distance>
  </Volunteer>
  <Volunteer>
    <Id>278143272</Id>
    <Name>Eliyahu Braun</Name>
    <Phone>0565432198</Phone>
    <Email>eliyahubraun@gmail.com</Email>
    <Password>Braun2021</Password>
    <Role>Volunteer</Role>
    <IsActive>true</IsActive>
    <Type_Distance>Drive</Type_Distance>
    <Address>האדמור 11 שכונת אדמורים ישראל</Address>
    <Latitude>34.790317</Latitude>
    <Longitude>32.074038</Longitude>
    <Max_Distance>9</Max_Distance>
  </Volunteer>
  <Volunteer>
    <Id>347132580</Id>
    <Name>a s</Name>
    <Phone>123</Phone>
    <Email>as</Email>
    <Password>as</Password>
    <Role>Manager</Role>
    <IsActive>false</IsActive>
    <Type_Distance>Air</Type_Distance>
    <Address>as</Address>
    <Latitude>34</Latitude>
    <Longitude>32</Longitude>
    <Max_Distance>12</Max_Distance>
  </Volunteer>
</ArrayOfVolunteer>