<?xml version="1.0" encoding="utf-8"?>
<ArrayOfVolunteer>
  <Volunteer>
    <Id>328306550</Id>
    <Name>Yaakov Levi</Name>
    <Phone>0521234567</Phone>
    <Email>yaakovlevi@gmail.com</Email>
    <Password>Passw0rd!</Password>
    <Role>Manager</Role>
    <IsActive>true</IsActive>
    <Type_Distance>Air</Type_Distance>
    <Address>5 Hamerkaz Street, Haifa City Center, Haifa, Israel</Address>
    <Latitude>32.792761</Latitude>
    <Longitude>34.995336</Longitude>
    <Max_Distance>19</Max_Distance>
  </Volunteer>
  <Volunteer>
    <Id>329333488</Id>
    <Name>Moshe Cohen</Name>
    <Phone>0549876543</Phone>
    <Email>moshecohen@gmail.com</Email>
    <Password>SecurePass123!</Password>
    <Role>Volunteer</Role>
    <IsActive>true</IsActive>
    <Type_Distance>None</Type_Distance>
    <Address>12 Rothschild Boulevard, Tel Aviv, Israel</Address>
    <Latitude>32.062745</Latitude>
    <Longitude>34.770447</Longitude>
    <Max_Distance>6</Max_Distance>
  </Volunteer>
  <Volunteer>
    <Id>214491060</Id>
    <Name>Avraham Goldstein</Name>
    <Phone>0506543298</Phone>
    <Email>avrahamgoldstein@gmail.com</Email>
    <Password>Gmail1234!</Password>
    <Role>Volunteer</Role>
    <IsActive>true</IsActive>
    <Type_Distance>Drive</Type_Distance>
    <Address>10 King David Street, Jerusalem City Center, Jerusalem, Israel</Address>
    <Latitude>31.70954</Latitude>
    <Longitude>35.205725</Longitude>
    <Max_Distance>17</Max_Distance>
  </Volunteer>
  <Volunteer>
    <Id>219595907</Id>
    <Name>David Friedman</Name>
    <Phone>0525432187</Phone>
    <Email>davidfriedman@gmail.com</Email>
    <Password>Password123!</Password>
    <Role>Volunteer</Role>
    <IsActive>true</IsActive>
    <Type_Distance>Drive</Type_Distance>
    <Address>25 Herzl Street, Rehovot, Israel</Address>
    <Latitude>31.916661</Latitude>
    <Longitude>35.176402</Longitude>
    <Max_Distance>14</Max_Distance>
  </Volunteer>
  <Volunteer>
    <Id>215281288</Id>
    <Name>Shlomo Rabinowitz</Name>
    <Phone>0589876543</Phone>
    <Email>shlomorabinowitz@gmail.com</Email>
    <Password>SecretPass!</Password>
    <Role>Volunteer</Role>
    <IsActive>true</IsActive>
    <Type_Distance>None</Type_Distance>
    <Address>18 Bialik Street, Ramat Gan, Israel</Address>
    <Latitude>31.797499</Latitude>
    <Longitude>34.645104</Longitude>
    <Max_Distance>12</Max_Distance>
  </Volunteer>
  <Volunteer>
    <Id>218445062</Id>
    <Name>Menachem Green</Name>
    <Phone>0524321987</Phone>
    <Email>menachemgreen@gmail.com</Email>
    <Password>Green2021!</Password>
    <Role>Volunteer</Role>
    <IsActive>true</IsActive>
    <Type_Distance>Drive</Type_Distance>
    <Address>9 Ben Yehuda Street, Tel Aviv, Israel</Address>
    <Latitude>32.087066</Latitude>
    <Longitude>34.773227</Longitude>
    <Max_Distance>16</Max_Distance>
  </Volunteer>
  <Volunteer>
    <Id>332987908</Id>
    <Name>Aryeh Schwartz</Name>
    <Phone>0583219876</Phone>
    <Email>aryehschwartz@gmail.com</Email>
    <Password>AryehS!23!</Password>
    <Role>Volunteer</Role>
    <IsActive>true</IsActive>
    <Type_Distance>None</Type_Distance>
    <Address>30 Hanevi'im Street, Jerusalem, Israel</Address>
    <Latitude>31.759595</Latitude>
    <Longitude>35.215315</Longitude>
    <Max_Distance>14</Max_Distance>
  </Volunteer>
  <Volunteer>
    <Id>214388381</Id>
    <Name>Shimon Baruch</Name>
    <Phone>0551987654</Phone>
    <Email>shimonbaruch@gmail.com</Email>
    <Password>Baruch2021!</Password>
    <Role>Volunteer</Role>
    <IsActive>true</IsActive>
    <Type_Distance>Drive</Type_Distance>
    <Address>15 Hahistadrut Avenue, Haifa, Israel</Address>
    <Latitude>32.7992802</Latitude>
    <Longitude>35.0497902</Longitude>
    <Max_Distance>11</Max_Distance>
  </Volunteer>
  <Volunteer>
    <Id>214875379</Id>
    <Name>Yisrael Weiner</Name>
    <Phone>0534567892</Phone>
    <Email>yisraelweiner@gmail.com</Email>
    <Password>WeinerPass!</Password>
    <Role>Volunteer</Role>
    <IsActive>true</IsActive>
    <Type_Distance>None</Type_Distance>
    <Address>7 Dizengoff Street, Tel Aviv, Israel</Address>
    <Latitude>32.084319</Latitude>
    <Longitude>34.781364</Longitude>
    <Max_Distance>16</Max_Distance>
  </Volunteer>
  <Volunteer>
    <Id>330986704</Id>
    <Name>Aharon Fried</Name>
    <Phone>0587654321</Phone>
    <Email>aharonfried@gmail.com</Email>
    <Password>Aharon12345!</Password>
    <Role>Volunteer</Role>
    <IsActive>true</IsActive>
    <Type_Distance>None</Type_Distance>
    <Address>20 Menachem Begin Road, Tel Aviv, Israel</Address>
    <Latitude>32.066455</Latitude>
    <Longitude>34.783553</Longitude>
    <Max_Distance>9</Max_Distance>
  </Volunteer>
  <Volunteer>
    <Id>214324998</Id>
    <Name>Shlomo Fisher</Name>
    <Phone>0509876543</Phone>
    <Email>shlomofisher@gmail.com</Email>
    <Password>Fish1234!</Password>
    <Role>Volunteer</Role>
    <IsActive>true</IsActive>
    <Type_Distance>Air</Type_Distance>
    <Address>22 Jabotinsky Street, Ramat Gan, Israel</Address>
    <Latitude>32.062593</Latitude>
    <Longitude>34.776051</Longitude>
    <Max_Distance>4</Max_Distance>
  </Volunteer>
  <Volunteer>
    <Id>327786612</Id>
    <Name>Daniel Grossman</Name>
    <Phone>0541234567</Phone>
    <Email>danielgrossman@gmail.com</Email>
    <Password>GrossPass!!</Password>
    <Role>Volunteer</Role>
    <IsActive>true</IsActive>
    <Type_Distance>Air</Type_Distance>
    <Address>14 Weizmann Street, Herzliya, Israel</Address>
    <Latitude>32.171739</Latitude>
    <Longitude>34.825672</Longitude>
    <Max_Distance>4</Max_Distance>
  </Volunteer>
  <Volunteer>
    <Id>327880845</Id>
    <Name>Avraham Super</Name>
    <Phone>0576543219</Phone>
    <Email>avrahamsuper@gmail.com</Email>
    <Password>SuperPass2021!</Password>
    <Role>Volunteer</Role>
    <IsActive>true</IsActive>
    <Type_Distance>Drive</Type_Distance>
    <Address>3 Shderot Ben Gurion, Haifa, Israel</Address>
    <Latitude>32.792761</Latitude>
    <Longitude>34.995336</Longitude>
    <Max_Distance>16</Max_Distance>
  </Volunteer>
  <Volunteer>
    <Id>329236087</Id>
    <Name>Shmuel Gross</Name>
    <Phone>0509876543</Phone>
    <Email>shmuelgross@gmail.com</Email>
    <Password>ShmuelPass!</Password>
    <Role>Volunteer</Role>
    <IsActive>true</IsActive>
    <Type_Distance>None</Type_Distance>
    <Address>8 Agron Street, Jerusalem, Israel</Address>
    <Latitude>31.712552</Latitude>
    <Longitude>35.224389</Longitude>
    <Max_Distance>2</Max_Distance>
  </Volunteer>
  <Volunteer>
    <Id>327796678</Id>
    <Name>Eliyahu Braun</Name>
    <Phone>0565432198</Phone>
    <Email>eliyahubraun@gmail.com</Email>
    <Password>Braun2021!</Password>
    <Role>Volunteer</Role>
    <IsActive>true</IsActive>
    <Type_Distance>Drive</Type_Distance>
    <Address>6 Zamenhoff Street, Tel Aviv, Israel</Address>
    <Latitude>32.066455</Latitude>
    <Longitude>34.783553</Longitude>
    <Max_Distance>18</Max_Distance>
  </Volunteer>
</ArrayOfVolunteer>