<?xml version="1.0" encoding="utf-8"?>
<ArrayOfVolunteer>
  <Volunteer>
    <Id>266719473</Id>
    <Name>Yaakov Levi</Name>
    <Phone>0521234567</Phone>
    <Email>yaakovlevi@gmail.com</Email>
    <Password>Passw0rd!</Password>
    <Role>Manager</Role>
    <IsActive>true</IsActive>
    <Type_Distance>Drive</Type_Distance>
    <Address>5 Hamerkaz Street, Haifa City Center, Haifa, Israel</Address>
    <Latitude>34.77041</Latitude>
    <Longitude>32.093035</Longitude>
    <Max_Distance>11</Max_Distance>
  </Volunteer>
  <Volunteer>
    <Id>320070351</Id>
    <Name>Moshe Cohen</Name>
    <Phone>0549876543</Phone>
    <Email>moshecohen@gmail.com</Email>
    <Password>SecurePass123</Password>
    <Role>Volunteer</Role>
    <IsActive>true</IsActive>
    <Type_Distance>Drive</Type_Distance>
    <Address>12 Rothschild Boulevard, Tel Aviv, Israel</Address>
    <Latitude>34.773367</Latitude>
    <Longitude>32.072976</Longitude>
    <Max_Distance>13</Max_Distance>
  </Volunteer>
  <Volunteer>
    <Id>397702592</Id>
    <Name>Avraham Goldstein</Name>
    <Phone>0506543298</Phone>
    <Email>avrahamgoldstein@gmail.com</Email>
    <Password>Gmail1234</Password>
    <Role>Volunteer</Role>
    <IsActive>true</IsActive>
    <Type_Distance>Walking</Type_Distance>
    <Address>10 King David Street, Jerusalem City Center, Jerusalem, Israel</Address>
    <Latitude>34.775382</Latitude>
    <Longitude>32.075237</Longitude>
    <Max_Distance>10</Max_Distance>
  </Volunteer>
  <Volunteer>
    <Id>261596093</Id>
    <Name>David Friedman</Name>
    <Phone>0525432187</Phone>
    <Email>davidfriedman@gmail.com</Email>
    <Password>Password123</Password>
    <Role>Volunteer</Role>
    <IsActive>true</IsActive>
    <Type_Distance>Air</Type_Distance>
    <Address>25 Herzl Street, Rehovot, Israel</Address>
    <Latitude>34.778712</Latitude>
    <Longitude>32.074741</Longitude>
    <Max_Distance>1</Max_Distance>
  </Volunteer>
  <Volunteer>
    <Id>242120303</Id>
    <Name>Shlomo Rabinowitz</Name>
    <Phone>0589876543</Phone>
    <Email>shlomorabinowitz@gmail.com</Email>
    <Password>SecretPass</Password>
    <Role>Volunteer</Role>
    <IsActive>true</IsActive>
    <Type_Distance>Air</Type_Distance>
    <Address>18 Bialik Street, Ramat Gan, Israel</Address>
    <Latitude>34.774574</Latitude>
    <Longitude>32.069773</Longitude>
    <Max_Distance>7</Max_Distance>
  </Volunteer>
  <Volunteer>
    <Id>315218663</Id>
    <Name>Menachem Green</Name>
    <Phone>0524321987</Phone>
    <Email>menachemgreen@gmail.com</Email>
    <Password>Green2021</Password>
    <Role>Volunteer</Role>
    <IsActive>true</IsActive>
    <Type_Distance>Drive</Type_Distance>
    <Address>9 Ben Yehuda Street, Tel Aviv, Israel</Address>
    <Latitude>34.983579</Latitude>
    <Longitude>32.820103</Longitude>
    <Max_Distance>2</Max_Distance>
  </Volunteer>
  <Volunteer>
    <Id>362853603</Id>
    <Name>Aryeh Schwartz</Name>
    <Phone>0583219876</Phone>
    <Email>aryehschwartz@gmail.com</Email>
    <Password>AryehS!23</Password>
    <Role>Volunteer</Role>
    <IsActive>true</IsActive>
    <Type_Distance>Drive</Type_Distance>
    <Address>30 Hanevi'im Street, Jerusalem, Israel</Address>
    <Latitude>34.98719</Latitude>
    <Longitude>32.820918</Longitude>
    <Max_Distance>5</Max_Distance>
  </Volunteer>
  <Volunteer>
    <Id>223332936</Id>
    <Name>Shimon Baruch</Name>
    <Phone>0551987654</Phone>
    <Email>shimonbaruch@gmail.com</Email>
    <Password>Baruch2021</Password>
    <Role>Volunteer</Role>
    <IsActive>true</IsActive>
    <Type_Distance>Walking</Type_Distance>
    <Address>15 Hahistadrut Avenue, Haifa, Israel</Address>
    <Latitude>34.988004</Latitude>
    <Longitude>32.820536</Longitude>
    <Max_Distance>2</Max_Distance>
  </Volunteer>
  <Volunteer>
    <Id>231312580</Id>
    <Name>Yisrael Weiner</Name>
    <Phone>0534567892</Phone>
    <Email>yisraelweiner@gmail.com</Email>
    <Password>WeinerPass</Password>
    <Role>Volunteer</Role>
    <IsActive>true</IsActive>
    <Type_Distance>Drive</Type_Distance>
    <Address>7 Dizengoff Street, Tel Aviv, Israel</Address>
    <Latitude>34.742663</Latitude>
    <Longitude>32.977347</Longitude>
    <Max_Distance>18</Max_Distance>
  </Volunteer>
  <Volunteer>
    <Id>291218515</Id>
    <Name>Aharon Fried</Name>
    <Phone>0587654321</Phone>
    <Email>aharonfried@gmail.com</Email>
    <Password>Aharon12345</Password>
    <Role>Volunteer</Role>
    <IsActive>true</IsActive>
    <Type_Distance>Walking</Type_Distance>
    <Address>20 Menachem Begin Road, Tel Aviv, Israel</Address>
    <Latitude>34.912945</Latitude>
    <Longitude>32.175679</Longitude>
    <Max_Distance>7</Max_Distance>
  </Volunteer>
  <Volunteer>
    <Id>361767773</Id>
    <Name>Shlomo Fisher</Name>
    <Phone>0509876543</Phone>
    <Email>shlomofisher@gmail.com</Email>
    <Password>Fish1234</Password>
    <Role>Volunteer</Role>
    <IsActive>true</IsActive>
    <Type_Distance>Walking</Type_Distance>
    <Address>22 Jabotinsky Street, Ramat Gan, Israel</Address>
    <Latitude>34.79496</Latitude>
    <Longitude>32.07283</Longitude>
    <Max_Distance>13</Max_Distance>
  </Volunteer>
  <Volunteer>
    <Id>265973908</Id>
    <Name>Daniel Grossman</Name>
    <Phone>0541234567</Phone>
    <Email>danielgrossman@gmail.com</Email>
    <Password>GrossPass!</Password>
    <Role>Volunteer</Role>
    <IsActive>true</IsActive>
    <Type_Distance>Drive</Type_Distance>
    <Address>14 Weizmann Street, Herzliya, Israel</Address>
    <Latitude>34.912181</Latitude>
    <Longitude>32.175537</Longitude>
    <Max_Distance>14</Max_Distance>
  </Volunteer>
  <Volunteer>
    <Id>219219389</Id>
    <Name>Avraham Super</Name>
    <Phone>0576543219</Phone>
    <Email>avrahamsuper@gmail.com</Email>
    <Password>SuperPass2021</Password>
    <Role>Volunteer</Role>
    <IsActive>true</IsActive>
    <Type_Distance>Air</Type_Distance>
    <Address>3 Shderot Ben Gurion, Haifa, Israel</Address>
    <Latitude>34.799589</Latitude>
    <Longitude>32.07082</Longitude>
    <Max_Distance>4</Max_Distance>
  </Volunteer>
  <Volunteer>
    <Id>254888096</Id>
    <Name>Shmuel Gross</Name>
    <Phone>0509876543</Phone>
    <Email>shmuelgross@gmail.com</Email>
    <Password>ShmuelPass</Password>
    <Role>Volunteer</Role>
    <IsActive>true</IsActive>
    <Type_Distance>Air</Type_Distance>
    <Address>8 Agron Street, Jerusalem, Israel</Address>
    <Latitude>34.801429</Latitude>
    <Longitude>32.070131</Longitude>
    <Max_Distance>4</Max_Distance>
  </Volunteer>
  <Volunteer>
    <Id>332647739</Id>
    <Name>Eliyahu Braun</Name>
    <Phone>0565432198</Phone>
    <Email>eliyahubraun@gmail.com</Email>
    <Password>Braun2021</Password>
    <Role>Volunteer</Role>
    <IsActive>true</IsActive>
    <Type_Distance>Walking</Type_Distance>
    <Address>6 Zamenhoff Street, Tel Aviv, Israel</Address>
    <Latitude>34.790317</Latitude>
    <Longitude>32.074038</Longitude>
    <Max_Distance>9</Max_Distance>
  </Volunteer>
</ArrayOfVolunteer>